[
  {
    "id": 10330,
    "name": "Admin ",
    "phone_number": "09875416212",
    "address": "Jalan Utan Kayu Raya No 68H",
    "postal_code": "14120",
    "latitude": null,
    "longitude": null,
    "subdistrict_id": 2120,
    "is_default": true,
    "store_id": 2,
    "Subdistrict": {
      "id": 2120,
      "name": "Matraman",
      "type": "Kecamatan",
      "city_id": 154,
      "kiriminaja_id": 2128,
      "City": {
        "id": 154,
        "name": "Jakarta Timur",
        "type": "Kota",
        "province_id": 6,
        "kiriminaja_id": 154,
        "Province": {
          "id": 6,
          "name": "DKI Jakarta",
          "kiriminaja_id": 6
        }
      }
    }
  },
  {
    "id": 10331,
    "name": "Admin 2",
    "phone_number": "09861443232",
    "address": "Jalan 2",
    "postal_code": "13120",
    "latitude": null,
    "longitude": null,
    "subdistrict_id": 2120,
    "is_default": false,
    "store_id": 2,
    "Subdistrict": {
      "id": 2120,
      "name": "Matraman 2",
      "type": "Kecamatan",
      "city_id": 154,
      "kiriminaja_id": 2120,
      "City": {
        "id": 154,
        "name": "Surabaya",
        "type": "Kota",
        "province_id": 6,
        "kiriminaja_id": 154,
        "Province": {
          "id": 6,
          "name": "Surabaya",
          "kiriminaja_id": 6
        }
      }
    }
  },
  {
    "id": 10332,
    "name": "Admin 3",
    "phone_number": "0982361443232",
    "address": "Jalan 3",
    "postal_code": "13120",
    "latitude": null,
    "longitude": null,
    "subdistrict_id": 2122,
    "is_default": false,
    "store_id": 2,
    "Subdistrict": {
      "id": 2122,
      "name": "Matraman 3",
      "type": "Kecamatan",
      "city_id": 154,
      "kiriminaja_id": 2122,
      "City": {
        "id": 154,
        "name": "Malang",
        "type": "Kota",
        "province_id": 6,
        "kiriminaja_id": 154,
        "Province": {
          "id": 6,
          "name": "Malang",
          "kiriminaja_id": 6
        }
      }
    }
  }
]
